frame_num;sec;nsec;yaw;pitch;roll;north_c;east_c;down_c;north;east;down;vx;vy;vz;gimbal_roll;gimbal_pitch;gps_time_week
1;1664534681;481006284;1.37969;-0.0255952;0.00203576;207.85;-686.222;170.868;188.393;-675.334;-0.000686646;-0.000453806;9.53277e-05;-0.00245112;0.008;-0.001;0
2;1664534690;779675375;1.37955;-0.025438;0.00200372;208.017;-686.234;170.867;188.424;-675.299;3.05176e-05;0.000128773;0.000441553;-0.00529327;0.007;0.002;0
3;1664534690;879733592;1.37954;-0.0254467;0.00198815;208.017;-686.234;170.867;188.426;-675.297;0.00012207;0.000157446;0.00047056;-0.00478456;-0.002;-0.006;0
4;1664534691;79594466;1.37949;-0.0254553;0.00196541;208.017;-686.234;170.867;188.429;-675.293;-0.000915527;0.000286937;0.000690584;-0.00419348;-0.002;0;0
5;1664534691;179592403;1.37949;-0.0254488;0.00194358;208.017;-686.234;170.867;188.429;-675.293;0.000244141;0.000232089;0.000345887;-0.00419075;-0.003;-0.005;0
6;1664534691;279555018;1.37952;-0.0254144;0.00196189;208.015;-686.232;170.867;188.43;-675.292;0.00126648;0.000220029;0.000138514;-0.00439208;-0.006;-0.003;0
7;1664534691;379562618;1.37949;-0.0253764;0.0019519;208.015;-686.232;170.867;188.43;-675.292;-4.57764e-05;0.000477046;0.000326628;-0.00366938;-0.009;-0.003;0
8;1664534691;479550797;1.37946;-0.0253841;0.00195133;208.015;-686.231;170.867;188.43;-675.292;9.15527e-05;0.000844618;0.000128982;-0.00288262;-0.012;0.004;0
9;1664534691;579527778;1.37948;-0.025396;0.00193142;208.015;-686.231;170.867;188.429;-675.29;-0.000106812;0.000446223;-2.01172e-05;-0.00233824;-0.008;0.001;0
10;1664534691;679506806;1.37945;-0.0253926;0.00191395;208.016;-686.234;170.867;188.429;-675.288;0.000213623;-2.75965e-05;3.86523e-05;-0.00254261;0;0.002;0
11;1664534691;779489354;1.37943;-0.025357;0.00187648;208.016;-686.234;170.867;188.432;-675.286;-0.000244141;0.000113847;0.000385473;-0.00279418;-0.005;0.001;0
12;1664534691;879477053;1.37941;-0.0253351;0.00191152;208.019;-686.232;170.867;188.436;-675.284;0.000106812;3.0064e-05;-0.00015037;-0.00288505;-0.002;-0.003;0
13;1664534691;979437588;1.37942;-0.0253502;0.00193997;208.019;-686.232;170.867;188.439;-675.284;0;5.1232e-05;-8.04828e-06;-0.00336938;-0.003;-0.003;0
14;1664534692;79436769;1.37943;-0.0253904;0.00194427;208.019;-686.232;170.867;188.44;-675.283;-7.62939e-05;-0.000417161;0.00013143;-0.00392973;0.002;-0.001;0
15;1664534692;179418179;1.37943;-0.0254387;0.00196145;208.017;-686.233;170.868;188.441;-675.284;0.000320435;5.22706e-05;2.78165e-05;-0.00382687;-0.005;0.003;0
16;1664534692;279381128;1.37944;-0.025443;0.00193059;208.017;-686.233;170.868;188.442;-675.284;0.000473022;0.000244807;0.000247361;-0.00410499;-0.002;0.003;0
17;1664534692;379380934;1.37939;-0.0254218;0.00191321;208.017;-686.234;170.867;188.442;-675.284;-0.000930786;0.000330591;0.000214663;-0.00432055;-0.002;0.003;0
18;1664534692;479350442;1.3794;-0.0254194;0.00192129;208.017;-686.234;170.867;188.442;-675.285;0.000213623;0.000194517;0.000233459;-0.00509691;-0.004;0;0
19;1664534692;579314575;1.37941;-0.0254412;0.00192881;208.016;-686.233;170.867;188.442;-675.285;7.62939e-05;0.000209448;0.000399021;-0.00566155;0;-0.002;0
20;1664534692;679321069;1.37945;-0.0254426;0.00195597;208.016;-686.233;170.867;188.442;-675.286;-0.000457764;5.45957e-05;9.41127e-05;-0.00561569;0.011;0.001;0
21;1664534692;779293840;1.37939;-0.0254359;0.00197996;208.016;-686.233;170.867;188.445;-675.286;0.000549316;-4.22003e-05;-4.62246e-06;-0.00571055;-0.004;0.005;0
22;1664534692;879262708;1.37936;-0.0254405;0.00198796;208.016;-686.233;170.867;188.448;-675.287;0.00100708;0.000193057;0.000115848;-0.00571771;0.008;0;0
23;1664534692;979228633;1.37937;-0.0254033;0.00201593;208.016;-686.234;170.868;188.45;-675.287;-0.000946045;7.80333e-05;-0.000205806;-0.00571368;0.004;0.001;0
24;1664534693;79239516;1.37939;-0.0254025;0.00202773;208.016;-686.234;170.868;188.452;-675.288;-0.000717163;-7.55047e-05;-0.000285218;-0.00633426;-0.002;0.002;0
25;1664534693;179219738;1.3794;-0.0253821;0.00202758;208.017;-686.235;170.867;188.453;-675.288;-0.000579834;-1.27833e-05;-0.000466898;-0.00666224;-0.002;0.001;0
26;1664534693;279179676;1.37948;-0.0254224;0.0020225;208.017;-686.235;170.867;188.454;-675.288;0.000427246;0.000208795;-0.000660714;-0.00709456;-0.001;-0.007;0
27;1664534693;379175735;1.3795;-0.0254274;0.00202473;208.016;-686.231;170.867;188.453;-675.289;0.000595093;0.000356114;-0.000456858;-0.0058031;0.002;-0.003;0
28;1664534693;479156437;1.37951;-0.0254277;0.00204124;208.016;-686.231;170.867;188.453;-675.289;-9.15527e-05;0.000305318;-0.000382168;-0.004544;-0.001;-0.008;0
29;1664534693;579132468;1.37952;-0.0254172;0.00199669;208.016;-686.233;170.866;188.453;-675.289;-0.000228882;0.000193126;-0.00028816;-0.00401446;0.005;-0.005;0
30;1664534693;679116593;1.37951;-0.0254034;0.00200813;208.016;-686.233;170.866;188.453;-675.289;-0.000808716;1.85252e-05;-4.49015e-05;-0.00369101;0.001;0.005;0
31;1664534693;779095888;1.37951;-0.0253844;0.00203296;208.016;-686.233;170.867;188.456;-675.29;-0.000274658;0.000350677;-0.000187243;-0.00424043;-0.003;-0.009;0
32;1664534693;879092907;1.37949;-0.0254017;0.00203855;208.016;-686.233;170.867;188.459;-675.29;-0.000167847;0.000372953;-0.000445395;-0.00469737;0.005;-0.001;0
33;1664534693;979056044;1.37951;-0.0253963;0.00204861;208.017;-686.234;170.867;188.461;-675.29;-0.000152588;0.000414555;-6.83985e-05;-0.00531166;0.013;-0.007;0
34;1664534694;79047896;1.37956;-0.0254165;0.00200237;208.017;-686.234;170.867;188.463;-675.29;0.000274658;-7.86067e-06;3.24145e-05;-0.00549289;0.008;-0.006;0
35;1664534694;179037854;1.37961;-0.0254298;0.00202272;208.015;-686.232;170.866;188.464;-675.29;-0.00109863;0.000463778;-6.67462e-05;-0.0056077;-0.011;0.003;0
36;1664534694;279008424;1.37958;-0.0254286;0.00202576;208.015;-686.232;170.866;188.465;-675.29;-0.000411987;0.000302593;-0.000239978;-0.00628659;0.007;-0.004;0
37;1664534694;378990128;1.37957;-0.0254309;0.00201721;208.017;-686.234;170.867;188.465;-675.29;1.52588e-05;0.000305443;-0.000249811;-0.00641401;0;-0.003;0
38;1664534694;478974808;1.37957;-0.0254364;0.00202119;208.017;-686.234;170.867;188.465;-675.29;-0.000335693;6.88433e-05;-9.17867e-05;-0.00579767;0.004;-0.002;0
39;1664534694;578963870;1.37959;-0.0254209;0.00198614;208.017;-686.233;170.866;188.464;-675.289;-7.62939e-05;0.000135399;-0.000397485;-0.00518792;0.005;-0.001;0
40;1664534694;678939496;1.37963;-0.0254129;0.00197338;208.017;-686.233;170.866;188.464;-675.289;-0.000808716;0.000485832;-0.000305848;-0.00480772;0.008;-0.006;0
41;1664534694;778933262;1.37962;-0.025401;0.00195819;208.017;-686.232;170.867;188.463;-675.29;-0.000198364;0.000468082;-0.000185262;-0.00521042;0.006;-0.005;0
42;1664534694;878899608;1.37961;-0.02542;0.00197519;208.017;-686.232;170.867;188.463;-675.29;0.000701904;8.94326e-05;-0.000353987;-0.005568;0.004;-0.006;0
43;1664534694;978900733;1.37962;-0.0254107;0.00196181;208.015;-686.233;170.867;188.462;-675.29;0.00062561;8.90702e-05;4.1353e-06;-0.00511897;0.004;-0.004;0
44;1664534695;78857540;1.37963;-0.0254249;0.00197022;208.015;-686.233;170.867;188.461;-675.29;-1.52588e-05;0.000312471;6.40316e-06;-0.00515865;0.003;-0.003;0
45;1664534695;178838660;1.37964;-0.0254311;0.0019593;208.016;-686.234;170.867;188.465;-675.29;1.52588e-05;8.95849e-05;6.00258e-05;-0.00544917;0.002;-0.002;0
46;1664534695;278812422;1.37963;-0.0254573;0.00196588;208.016;-686.234;170.867;188.468;-675.29;0.00105286;7.02396e-05;-3.28424e-05;-0.00561922;0.001;-0.001;0
47;1664534695;378803844;1.37966;-0.0254337;0.00195885;208.017;-686.233;170.867;188.471;-675.29;0.000579834;0.000154983;-8.10285e-06;-0.00486171;0;0.001;0
48;1664534695;478791747;1.37966;-0.0254215;0.00196097;208.017;-686.233;170.867;188.472;-675.29;-0.000930786;0.000113453;0.000332843;-0.00470914;-0.001;0.001;0
49;1664534695;578760645;1.37964;-0.0254399;0.00193744;208.016;-686.234;170.867;188.474;-675.289;0.000289917;-5.11356e-05;2.75599e-05;-0.00479201;0;-0.003;0
50;1664534695;678740070;1.37964;-0.0254122;0.0019236;208.016;-686.234;170.867;188.475;-675.289;0.00106812;-2.95315e-05;-0.000212954;-0.00444184;0.001;-0.003;0
51;1664534695;778732996;1.37964;-0.0254177;0.00192599;208.019;-686.233;170.867;188.475;-675.289;1.52588e-05;-5.51147e-05;-8.26475e-05;-0.00377236;0.002;-0.005;0
52;1664534695;878693096;1.37965;-0.0254257;0.00190664;208.019;-686.233;170.867;188.475;-675.289;0.000427246;-0.000258926;0.000138262;-0.00310747;0.002;-0.005;0
53;1664534695;978656939;1.37963;-0.025413;0.00192445;208.013;-686.232;170.867;188.475;-675.289;-9.15527e-05;1.98797e-05;2.53848e-05;-0.00318457;0.003;-0.004;0
54;1664534696;78646589;1.37964;-0.0253885;0.00188498;208.013;-686.232;170.867;188.475;-675.289;-0.00111389;0.000473216;0.000296375;-0.00369815;-0.002;-0.004;0
55;1664534696;178648383;1.37965;-0.0253622;0.00185948;208.016;-686.233;170.868;188.474;-675.289;-0.000442505;0.00017943;0.000246693;-0.00446756;0.005;-0.005;0
56;1664534696;278610792;1.37967;-0.0253597;0.00184604;208.016;-686.233;170.868;188.474;-675.289;-0.000732422;-0.000125701;-0.000167026;-0.00469341;-0.008;-0.004;0
57;1664534696;378594637;1.37979;-0.0253583;0.00186323;208.016;-686.233;170.868;188.477;-675.289;-0.000411987;0.000259522;-0.000100461;-0.00536871;-0.007;-0.004;0
58;1664534696;478576242;1.37991;-0.0253515;0.00186882;208.016;-686.233;170.868;188.48;-675.289;-0.000717163;0.000363104;-0.000590302;-0.0054847;-0.012;0;0
59;1664534696;578592113;1.3795;-0.0253741;0.00187009;208.017;-686.233;170.868;188.483;-675.289;-0.00117493;0.000112736;-0.000402922;-0.00534942;0.008;0;0
60;1664534696;678566136;1.37981;-0.0253769;0.00188415;208.017;-686.233;170.868;188.485;-675.289;-0.0017395;0.000362558;-0.000294858;-0.00517701;-0.004;0.001;0
61;1664534696;778521539;1.37985;-0.0253939;0.00190346;208.016;-686.233;170.868;188.486;-675.289;-0.00204468;0.000405358;-0.000238394;-0.00510864;-0.008;0.002;0
62;1664534696;878493418;1.38048;-0.0253924;0.0019044;208.016;-686.233;170.868;188.487;-675.289;-0.00234985;0.000232409;-0.000377142;-0.00472158;-0.001;-0.003;0
63;1664534696;978462226;1.38033;-0.0253024;0.00187968;208.015;-686.232;170.868;188.487;-675.289;-0.00328064;0.000519611;-0.000846604;-0.00443781;0;-0.003;0
64;1664534697;78455250;1.38045;-0.0251567;0.00185748;208.015;-686.232;170.868;188.487;-675.289;-0.00462341;0.000432793;-0.00102446;-0.00519451;-0.016;-0.001;0
65;1664534697;178436426;1.38016;-0.0251439;0.00185553;208.015;-686.232;170.868;188.486;-675.29;-0.00466919;0.000857589;-4.82341e-05;-0.00557597;-0.006;-0.001;0
66;1664534697;278423137;1.38035;-0.0255411;0.00185832;208.016;-686.233;170.868;188.486;-675.289;-0.00376892;0.000884374;0.00126932;-0.00484048;0.016;0.001;0
67;1664534697;378398329;1.38255;-0.0254846;0.0019163;208.018;-686.233;170.868;188.485;-675.29;-0.00382996;0.000501429;-0.0022298;-0.00349659;-0.001;0.003;0
68;1664534697;478380657;1.38198;-0.0251519;0.00193139;208.018;-686.233;170.868;188.485;-675.29;-0.00491333;9.87332e-05;-0.0018577;-0.00319946;-0.003;0.001;0
69;1664534697;578356969;1.38231;-0.0250289;0.00201483;208.018;-686.233;170.868;188.484;-675.29;-0.00619507;0.00100139;-0.00324981;-0.00371209;-0.013;-0.009;0
70;1664534697;678335105;1.38243;-0.0249491;0.00174786;208.016;-686.233;170.868;188.484;-675.29;-0.00770569;-0.00103995;0.00174612;-0.0048278;0.002;-0.007;0
71;1664534697;778324887;1.38162;-0.0249978;0.00229786;208.016;-686.233;170.868;188.483;-675.29;-0.00923157;-0.000190895;-0.000666423;-0.00539691;0.017;0.05;0
72;1664534697;878298576;1.38311;-0.0250006;0.00249123;208.016;-686.234;170.868;188.483;-675.29;-0.0110626;0.00521156;-0.00485656;-0.00691085;0.009;-0.071;0
73;1664534697;978251342;1.38267;-0.0249706;0.00203445;208.016;-686.234;170.868;188.486;-675.287;-0.0144196;-0.000270375;-0.00508747;-0.00887185;-0.002;-0.14;0
74;1664534698;78257767;1.38208;-0.0247293;0.00254787;208.017;-686.233;170.868;188.49;-675.285;-0.0189972;0.000523263;-0.00552574;-0.0119914;0.038;-0.127;0
75;1664534698;178231359;1.38194;-0.0248562;0.00280926;208.017;-686.233;170.868;188.493;-675.285;-0.024231;0.00374272;0.000723106;-0.0143311;0.03;0.161;0
76;1664534698;278214644;1.38125;-0.0250538;0.00206105;208.016;-686.234;170.867;188.494;-675.286;-0.0289917;-0.000679572;0.00377167;-0.0172611;-0.05;-0.035;0
77;1664534698;378196714;1.38221;-0.0251753;0.00332766;208.016;-686.234;170.867;188.495;-675.284;-0.0327911;0.00666;-0.00457538;-0.0227811;-0.012;-0.134;0
78;1664534698;478172481;1.38222;-0.0252631;0.00229912;208.017;-686.231;170.867;188.496;-675.282;-0.0330963;-0.0063856;0.00169794;-0.0230379;-0.043;-0.012;0
79;1664534698;578149304;1.38104;-0.0248628;0.00260494;208.017;-686.231;170.867;188.496;-675.281;-0.0345001;0.00379711;-0.000881306;-0.0256994;-0.003;-0.05;0
80;1664534698;678132269;1.38164;-0.0242798;0.00295655;208.018;-686.234;170.868;188.497;-675.28;-0.0379028;0.00106924;0.00151331;-0.0261332;-0.303;-0.048;0
81;1664534698;778112931;1.3826;-0.0248143;0.00301585;208.018;-686.234;170.868;188.496;-675.282;-0.0411835;-0.00825337;-0.00328525;-0.0247816;-1.054;0.116;0
82;1664534698;878086619;1.38264;-0.0248502;0.00225346;208.014;-686.234;170.867;188.496;-675.284;-0.0435791;-0.00115312;0.0034549;-0.0283388;-0.897;0.223;0
83;1664534698;978057747;1.38221;-0.0253165;0.00306836;208.014;-686.234;170.867;188.495;-675.286;-0.0473938;-0.00172401;-0.0113133;-0.029914;-0.828;0.091;0
84;1664534699;78065667;1.3836;-0.0250209;0.0033074;208.019;-686.232;170.867;188.495;-675.288;-0.0523834;-0.00874576;0.00707442;-0.0339101;0.746;-0.028;0
85;1664534699;178029575;1.38207;-0.0259094;0.00281572;208.019;-686.232;170.867;188.494;-675.289;-0.0570679;0.00220662;-0.00216852;-0.0384543;0.065;0.227;0
86;1664534699;278015495;1.38091;-0.0260957;0.0032732;208.016;-686.234;170.867;188.493;-675.289;-0.0615387;-0.00854821;-0.00163134;-0.042604;-1.018;-0.075;0
87;1664534699;377977067;1.3826;-0.0261192;0.00290818;208.016;-686.234;170.867;188.492;-675.29;-0.0639954;-0.00577019;-0.00689687;-0.0418834;0.103;0.069;0
88;1664534699;477961899;1.38154;-0.0239967;0.00269197;208.017;-686.233;170.867;188.49;-675.291;-0.0660095;-0.0145923;-0.00493684;-0.0343334;0.304;0.032;0
89;1664534699;577947787;1.37914;-0.0209223;0.00340212;208.017;-686.233;170.867;188.489;-675.292;-0.066452;-0.0192083;-0.00626677;-0.0292935;-0.046;0.167;0
90;1664534699;677943497;1.37976;-0.0170905;0.00463821;208.016;-686.233;170.867;188.486;-675.293;-0.0645447;-0.0245328;-0.00776565;-0.0213611;-0.081;-0.066;0
91;1664534699;777903725;1.38318;-0.0126147;0.00410339;208.016;-686.233;170.867;188.483;-675.294;-0.0584412;-0.0314094;-0.00391516;0.0178807;-0.229;0;0
92;1664534699;877884014;1.38371;-0.00238108;0.00593729;208.018;-686.234;170.866;188.479;-675.295;-0.0469208;-0.0529126;0.00171634;0.115338;-0.449;-0.049;0
93;1664534699;977848146;1.38424;0.00463465;0.00209114;208.018;-686.234;170.866;188.473;-675.296;-0.0238647;-0.0786465;0.00783799;0.292067;-0.306;0.021;0
94;1664534700;77838473;1.38865;0.00500279;-0.00722265;208.015;-686.233;170.867;188.464;-675.297;0.0154572;-0.100108;0.004176;0.462202;-0.29;0.241;0
95;1664534700;177823327;1.39348;0.00673821;-0.0129346;208.015;-686.233;170.867;188.449;-675.301;0.0764618;-0.110478;-0.0015849;0.662195;-0.148;0.27;0
96;1664534700;277797687;1.39614;0.00484215;-0.0136292;208.018;-686.233;170.867;188.433;-675.304;0.164948;-0.121921;-0.00807155;0.856829;-0.119;0.001;0
97;1664534700;377800681;1.394;0.00127833;-0.00681491;208.018;-686.233;170.867;188.416;-675.306;0.275314;-0.133901;-0.0118159;1.03671;-0.029;-0.013;0
98;1664534700;477748071;1.38011;-0.00157729;-0.00334537;208.015;-686.233;170.866;188.4;-675.308;0.410416;-0.143744;-0.0124383;1.24013;0.012;-0.07;0
99;1664534700;577728798;1.32514;-0.00889355;-0.00485882;208.015;-686.233;170.866;188.375;-675.311;0.569656;-0.159184;-0.00399875;1.516;0.121;0.022;0
100;1664534700;677717395;1.23341;-0.0174932;-0.00693694;208.017;-686.233;170.867;188.35;-675.312;0.756683;-0.164803;0.0120687;1.82561;0.233;-0.058;0
101;1664534700;777710023;1.11804;-0.0234965;-0.00853743;208.017;-686.233;170.867;188.33;-675.314;0.980606;-0.168488;0.0338288;2.12047;0.282;-0.025;0
102;1664534700;877649415;0.998176;-0.0258932;-0.010131;208.015;-686.233;170.866;188.313;-675.312;1.24632;-0.16765;0.0557435;2.36306;0.164;0.001;0
103;1664534700;977638300;0.889929;-0.0231867;-0.0118086;208.015;-686.233;170.866;188.301;-675.306;1.53;-0.160956;0.0884225;2.49799;0.032;-0.098;0
104;1664534701;77638543;0.786433;-0.0183954;-0.0181704;208.017;-686.234;170.867;188.287;-675.297;1.82332;-0.150622;0.105706;2.62476;-0.169;-0.028;0
105;1664534701;177606954;0.683386;-0.0154072;-0.025033;208.017;-686.234;170.867;188.271;-675.284;2.1331;-0.138969;0.121308;2.69438;-0.185;-0.057;0
106;1664534701;277585827;0.604937;-0.0160925;-0.03571;208.016;-686.231;170.866;188.254;-675.271;2.4487;-0.128198;0.137544;2.6743;-0.082;0.121;0
107;1664534701;377574969;0.544543;-0.0171776;-0.0424168;208.016;-686.231;170.866;188.237;-675.257;2.75279;-0.10707;0.146714;2.64185;-0.062;0.164;0
108;1664534701;477530071;0.491654;-0.0144804;-0.0476774;208.016;-686.234;170.867;188.222;-675.242;3.01808;-0.0853989;0.148319;2.64583;-0.126;0.08;0
109;1664534701;577520237;0.462216;-0.0116482;-0.0491455;208.016;-686.234;170.867;188.207;-675.224;3.26657;-0.0650484;0.13257;2.54782;-0.113;0.054;0
110;1664534701;677501957;0.439886;-0.00983237;-0.0463023;208.016;-686.233;170.867;188.194;-675.207;3.48163;-0.0599441;0.126749;2.47497;-0.128;0.067;0
111;1664534701;777473471;0.407821;-0.00695268;-0.0454016;208.016;-686.233;170.867;188.182;-675.192;3.68974;-0.0477029;0.108343;2.54532;-0.166;0.092;0
112;1664534701;877444634;0.374741;-0.00500193;-0.0432131;208.016;-686.234;170.867;188.173;-675.18;3.8978;-0.0428873;0.0998165;2.63563;-0.078;0.045;0
113;1664534701;977418323;0.352062;-0.00447467;-0.0372579;208.016;-686.234;170.867;188.163;-675.173;4.11008;-0.0422143;0.0906369;2.61259;-0.111;-0.057;0
114;1664534702;77422255;0.339161;-0.0233286;-0.0213429;208.017;-686.233;170.867;188.155;-675.166;4.3219;-0.0304782;0.097423;2.53094;0.251;-0.298;0
115;1664534702;177386232;0.326899;-0.0651746;-0.0109877;208.017;-686.233;170.867;188.15;-675.161;4.53157;0.000586107;0.118425;2.49854;0.845;-0.21;0
116;1664534702;277363837;0.31486;-0.113933;-0.00449001;208.018;-686.232;170.867;188.151;-675.151;4.75273;0.0647809;0.159969;2.47019;1.055;-0.356;0
117;1664534702;377338787;0.305062;-0.153205;-0.0044216;208.018;-686.232;170.867;188.166;-675.133;4.97072;0.179679;0.231887;2.45573;1.233;-0.328;0
118;1664534702;477317928;0.294911;-0.176368;-0.00365062;208.015;-686.233;170.867;188.193;-675.106;5.18187;0.333385;0.302684;2.49764;0.917;-0.32;0
119;1664534702;577297805;0.282882;-0.18727;-0.00267462;208.015;-686.233;170.867;188.239;-675.073;5.40764;0.509053;0.358221;2.52656;0.669;-0.245;0
120;1664534702;677302061;0.266191;-0.194182;-0.00324163;208.016;-686.233;170.867;188.301;-675.034;5.66138;0.698002;0.43706;2.60097;0.477;-0.244;0
121;1664534702;777246650;0.248308;-0.196046;-0.00457826;208.016;-686.233;170.867;188.393;-674.982;5.9281;0.878158;0.508408;2.68036;0.253;-0.166;0
122;1664534702;877219200;0.22601;-0.192835;-0.013668;208.016;-686.233;170.867;188.503;-674.922;6.20483;1.07623;0.570316;2.75463;0.023;-0.093;0
123;1664534702;977183752;0.201194;-0.185219;-0.0182608;208.016;-686.233;170.867;188.648;-674.846;6.49634;1.28218;0.620411;2.83263;-0.064;0.333;0
124;1664534703;77198552;0.178096;-0.173319;-0.0192079;208.016;-686.232;170.867;188.806;-674.769;6.8002;1.45266;0.658428;2.88207;-0.212;0.293;0
125;1664534703;177154937;0.155522;-0.163487;-0.0225727;208.016;-686.232;170.867;188.996;-674.674;7.11032;1.60988;0.674426;2.90748;-0.256;0.221;0
126;1664534703;277180779;0.13821;-0.155952;-0.0296602;208.016;-686.233;170.867;189.188;-674.585;7.41895;1.74871;0.693818;2.87006;-0.269;0.241;0
127;1664534703;377112273;0.123835;-0.145226;-0.0336102;208.016;-686.233;170.867;189.4;-674.483;7.72159;1.86468;0.703377;2.84145;-0.309;0.364;0
128;1664534703;477117064;0.113181;-0.135564;-0.0358994;208.017;-686.233;170.867;189.614;-674.389;8.01793;1.97307;0.709791;2.79535;-0.239;0.236;0
129;1664534703;577067978;0.10434;-0.134663;-0.0354708;208.017;-686.233;170.867;189.841;-674.286;8.30458;2.07813;0.709431;2.76875;-0.082;0.121;0
130;1664534703;677064450;0.0961076;-0.141569;-0.0360798;208.016;-686.233;170.867;190.071;-674.193;8.57343;2.1682;0.708864;2.70244;0.188;0.032;0
131;1664534703;777037888;0.0840317;-0.147747;-0.0394251;208.016;-686.233;170.867;190.302;-674.096;8.83191;2.2686;0.708322;2.64547;0.229;-0.025;0
132;1664534703;877014460;0.0713688;-0.146166;-0.0405193;208.017;-686.233;170.867;190.542;-674.007;9.09297;2.36923;0.70472;2.59709;0.026;0.19;0
133;1664534703;976985658;0.0621139;-0.14038;-0.0430246;208.017;-686.233;170.867;190.789;-673.915;9.34131;2.45561;0.694937;2.51585;-0.059;0.21;0
134;1664534704;76987114;0.0531817;-0.133646;-0.0468289;208.017;-686.234;170.867;191.049;-673.829;9.5735;2.54573;0.679129;2.46581;-0.2;0.158;0
135;1664534704;176945741;0.0470163;-0.126505;-0.0467975;208.017;-686.234;170.867;191.313;-673.744;9.80426;2.61422;0.663275;2.42854;-0.308;0.097;0
136;1664534704;276894865;0.0408748;-0.122167;-0.0452816;208.016;-686.233;170.867;191.588;-673.664;10.0465;2.68348;0.652771;2.41923;-0.241;0.167;0
137;1664534704;376899241;0.0323609;-0.115139;-0.0492381;208.016;-686.233;170.867;191.87;-673.582;10.2871;2.75519;0.628112;2.41277;-0.315;0.177;0
138;1664534704;477143084;0.0186103;-0.107029;-0.0490873;208.018;-686.232;170.867;192.161;-673.505;10.526;2.81733;0.593708;2.45873;-0.321;0.02;0
139;1664534704;576873152;0.00198078;-0.100804;-0.0491788;208.018;-686.232;170.866;192.461;-673.429;10.7746;2.87256;0.566746;2.51226;-0.251;0.029;0
140;1664534704;676916944;-0.0189184;-0.0992786;-0.0492076;208.014;-686.233;170.866;192.767;-673.359;11.0362;2.92159;0.547;2.5634;-0.257;0.394;0
141;1664534704;776800386;-0.0736709;-0.0897141;-0.0473836;208.014;-686.233;170.867;193.085;-673.29;11.319;2.98561;0.505145;2.7995;-0.431;0.101;0
142;1664534704;876823094;-0.148161;-0.0879078;-0.0427677;208.014;-686.233;170.867;193.405;-673.229;11.6311;3.01898;0.489395;2.94801;-0.26;0.003;0
143;1664534704;976765276;-0.232569;-0.0974609;-0.0446777;208.017;-686.234;170.867;193.738;-673.17;11.9599;3.0848;0.434297;3.10162;-0.049;-0.013;0
144;1664534705;76748377;-0.320721;-0.107898;-0.0485503;208.017;-686.234;170.867;194.071;-673.12;12.3092;3.12986;0.369175;3.25251;0.128;-0.079;0
145;1664534705;176706054;-0.411529;-0.117621;-0.0595072;208.016;-686.234;170.866;194.422;-673.076;12.6756;3.1937;0.300522;3.35077;0.218;0.141;0
146;1664534705;276705322;-0.501754;-0.127405;-0.0711781;208.016;-686.234;170.866;194.772;-673.043;13.0558;3.23744;0.199092;3.38217;0.299;0.296;0
147;1664534705;376664151;-0.588808;-0.134574;-0.0794029;208.016;-686.234;170.866;195.135;-673.022;13.4328;3.29331;0.0864508;3.46074;0.282;0.375;0
148;1664534705;476640801;-0.678145;-0.139221;-0.0894006;208.017;-686.233;170.866;195.493;-673.017;13.8066;3.33206;-0.044377;3.51902;0.213;0.427;0
149;1664534705;576662400;-0.772675;-0.141803;-0.0988085;208.016;-686.232;170.866;195.868;-673.026;14.1794;3.34837;-0.175929;3.55458;0.175;0.422;0
150;1664534705;676583509;-0.874664;-0.147715;-0.109447;208.016;-686.232;170.866;196.234;-673.05;14.544;3.34463;-0.330422;3.66451;0.178;0.313;0
151;1664534705;776582650;-0.981761;-0.153884;-0.118027;208.015;-686.234;170.866;196.612;-673.097;14.9169;3.3232;-0.513195;3.75808;0.236;0.361;0
152;1664534705;876556931;-1.08984;-0.162474;-0.120912;208.015;-686.234;170.866;196.974;-673.162;15.2914;3.2769;-0.696098;3.79312;0.275;0.292;0
153;1664534705;976513265;-1.19357;-0.173635;-0.120821;208.017;-686.233;170.866;197.338;-673.255;15.6664;3.23135;-0.878872;3.8123;0.339;0.281;0
154;1664534706;76513468;-1.29505;-0.178455;-0.125026;208.017;-686.233;170.866;197.684;-673.364;16.0425;3.14809;-1.0665;3.81101;0.242;0.194;0
155;1664534706;176498072;-1.38189;-0.175277;-0.127082;208.017;-686.233;170.867;198.028;-673.506;16.4159;3.04709;-1.24621;3.78642;0.061;0.376;0
156;1664534706;276455803;-1.45943;-0.155543;-0.137035;208.017;-686.233;170.867;198.351;-673.66;16.7884;2.91706;-1.43115;3.90208;-0.277;0.205;0
157;1664534706;376458036;-1.53123;-0.120299;-0.147243;208.015;-686.233;170.866;198.649;-673.839;17.1772;2.72378;-1.58368;4.05012;-0.897;0.667;0
158;1664534706;476444496;-1.58872;-0.0673629;-0.151823;208.015;-686.233;170.866;198.919;-674.023;17.5854;2.49998;-1.67647;4.21525;-1.392;0.603;0
159;1664534706;576395028;-1.63781;-0.00166135;-0.176681;208.015;-686.233;170.866;199.159;-674.22;18.0112;2.28818;-1.6908;4.32453;-1.433;0.697;0
160;1664534706;676388175;-1.68236;0.0442107;-0.204285;208.015;-686.233;170.866;199.377;-674.409;18.4616;2.05063;-1.63793;4.44169;-1.516;0.846;0
161;1664534706;776400517;-1.71966;0.0740199;-0.222424;208.015;-686.234;170.866;199.561;-674.584;18.9279;1.81803;-1.54611;4.48567;-1.318;0.802;0
162;1664534706;876384546;-1.75424;0.0903711;-0.231642;208.015;-686.234;170.867;199.723;-674.742;19.4117;1.56529;-1.38898;4.56557;-1.11;0.548;0
163;1664534706;976270964;-1.78664;0.0904643;-0.22991;208.015;-686.234;170.867;199.849;-674.865;19.9012;1.32519;-1.22186;4.57547;-0.536;0.211;0
164;1664534707;76315089;-1.81725;0.0811595;-0.219827;208.018;-686.232;170.866;199.954;-674.975;20.3801;1.08332;-1.07107;4.61972;-0.229;0.152;0
165;1664534707;176253622;-1.85064;0.0700973;-0.20188;208.016;-686.234;170.867;200.029;-675.043;20.8621;0.870879;-0.924053;4.67738;0.044;0.182;0
166;1664534707;276235601;-1.88805;0.0577757;-0.17944;208.016;-686.234;170.867;200.089;-675.109;21.3474;0.673545;-0.786872;4.7555;0.206;-0.237;0
167;1664534707;376191955;-1.92626;0.0441136;-0.154248;208.014;-686.234;170.867;200.122;-675.134;21.8362;0.511697;-0.670871;4.80405;0.262;-0.954;0
168;1664534707;476207974;-1.96197;0.0315073;-0.128908;208.014;-686.234;170.867;200.145;-675.163;22.3202;0.392728;-0.55223;4.78484;0.314;-0.714;0
169;1664534707;576141292;-1.99687;0.0199087;-0.100693;208.018;-686.233;170.867;200.154;-675.162;22.8014;0.283656;-0.493643;4.75123;0.424;-0.885;0
170;1664534707;676141732;-2.02718;0.0123106;-0.0763596;208.018;-686.233;170.867;200.158;-675.175;23.2822;0.212883;-0.439682;4.69355;0.396;-1.3;0
171;1664534707;776099684;-2.06105;0.00927855;-0.0582262;208.016;-686.234;170.867;200.165;-675.17;23.7505;0.157175;-0.405207;4.60829;0.218;-1.365;0
172;1664534707;876092669;-2.1204;0.00783744;-0.0477525;208.016;-686.234;170.867;200.168;-675.178;24.206;0.115485;-0.371012;4.58934;0.206;-1.017;0
173;1664534707;976056508;-2.17296;0.00675872;-0.03819;208.015;-686.233;170.867;200.182;-675.181;24.6541;0.0924618;-0.353099;4.40461;0.199;-0.793;0
174;1664534708;76042191;-2.19265;0.00426803;-0.0352814;208.015;-686.233;170.867;200.189;-675.195;25.0669;0.0811032;-0.345846;3.98628;0.186;-0.643;0
175;1664534708;176039534;-2.18658;0.00565239;-0.0352817;208.017;-686.233;170.867;200.21;-675.207;25.4307;0.0739946;-0.339464;3.56355;0.026;-0.385;0
176;1664534708;276002165;-2.16222;0.0133369;-0.0292894;208.017;-686.233;170.868;200.22;-675.223;25.7565;0.07191;-0.334886;3.29843;-0.038;-0.281;0
177;1664534708;375974746;-2.1243;0.0219923;-0.0269245;208.016;-686.233;170.867;200.258;-675.249;26.0464;0.0687813;-0.316947;3.12821;-0.16;-0.413;0
178;1664534708;475945567;-2.07631;0.0266853;-0.0237745;208.016;-686.233;170.867;200.282;-675.274;26.2966;0.0666394;-0.290079;3.06031;-0.129;-0.314;0
179;1664534708;575920547;-2.0182;0.0290444;-0.0189618;208.018;-686.233;170.868;200.329;-675.302;26.5517;0.0703123;-0.258732;2.96893;-0.125;-0.196;0
180;1664534708;675930687;-1.962;0.02965;-0.017837;208.018;-686.233;170.868;200.358;-675.323;26.8339;0.0640585;-0.217788;2.94249;-0.074;-0.225;0
181;1664534708;775881929;-1.91962;0.0270113;-0.0155205;208.016;-686.233;170.868;200.404;-675.344;27.1301;0.0663942;-0.166936;3.05738;0.051;-0.064;0
182;1664534708;875848208;-1.8893;0.0227481;-0.0122704;208.016;-686.233;170.868;200.431;-675.356;27.4508;0.0615207;-0.13908;3.20893;0.092;-0.162;0
183;1664534708;975850797;-1.86961;0.020404;-0.0109841;208.016;-686.232;170.868;200.469;-675.365;27.7979;0.0622606;-0.108863;3.38436;0.074;-0.233;0
184;1664534709;75832974;-1.86502;0.0173019;-0.0115562;208.016;-686.232;170.868;200.493;-675.368;28.1932;0.04824;-0.0855454;3.7088;0.065;-0.16;0
185;1664534709;175777577;-1.86634;0.0134893;-0.0131474;208.018;-686.233;170.868;200.519;-675.364;28.6288;0.0470223;-0.0477975;3.99316;0.169;-0.063;0
186;1664534709;275783286;-1.86695;0.00744031;-0.0139429;208.018;-686.233;170.868;200.535;-675.36;29.0947;0.0447123;-0.0316252;4.16725;0.262;-0.036;0
187;1664534709;375736528;-1.86527;0.00221054;-0.0124498;208.014;-686.232;170.868;200.554;-675.349;29.5793;0.0451123;-0.00992753;4.22894;0.207;0.11;0
188;1664534709;475750907;-1.86139;-0.00259066;-0.0096142;208.014;-686.232;170.868;200.566;-675.339;30.0802;0.0429823;-0.00559527;4.20941;0.214;-0.027;0
189;1664534709;575696950;-1.85756;-0.00454604;-0.00527882;208.014;-686.232;170.868;200.581;-675.327;30.5681;0.0416846;-0.00820883;4.18436;0.132;-0.023;0
190;1664534709;675683879;-1.85389;-0.00372165;-0.00550575;208.019;-686.234;170.868;200.591;-675.318;31.0139;0.036531;-0.00888431;4.18978;0.069;-0.11;0
191;1664534709;775645023;-1.85239;-0.00301073;-0.00591275;208.019;-686.234;170.868;200.602;-675.309;31.4479;0.0361372;-0.0139405;4.13319;0.045;-0.029;0
192;1664534709;875622450;-1.85237;-0.00200371;-0.00776644;208.014;-686.233;170.867;200.611;-675.303;31.8583;0.0349773;-0.0182107;4.0528;0.016;-0.036;0
193;1664534709;975582506;-1.85314;0.000144873;-0.0101476;208.017;-686.233;170.867;200.621;-675.299;32.2576;0.0324718;-0.020715;4.01959;-0.055;-0.119;0
194;1664534710;75636335;-1.85381;0.00226132;-0.01288;208.017;-686.233;170.867;200.628;-675.295;32.6476;0.0261187;-0.019698;3.99873;-0.068;-0.083;0
195;1664534710;175547404;-1.8543;0.00356329;-0.0136872;208.017;-686.233;170.867;200.636;-675.291;33.0375;0.0223951;-0.0212067;4.06991;-0.074;-0.01;0
196;1664534710;275514683;-1.8541;0.00280567;-0.0121335;208.017;-686.233;170.867;200.639;-675.285;33.4327;0.0104558;-0.0106511;4.12297;0.036;0.032;0
197;1664534710;375498886;-1.85383;-0.000691227;-0.00918856;208.016;-686.232;170.867;200.642;-675.277;33.8381;0.00772576;-0.00657667;4.19015;0.062;0.08;0
198;1664534710;475445242;-1.85362;-0.00325097;-0.00730479;208.016;-686.232;170.867;200.643;-675.27;34.2609;0.00692858;-0.00125433;4.23072;0.061;0.055;0
199;1664534710;575444833;-1.85392;-0.00518622;-0.00794437;208.016;-686.232;170.867;200.646;-675.26;34.6929;0.00397323;0.000932769;4.27007;0.068;-0.033;0
200;1664534710;677230114;-1.8541;-0.00299862;-0.0104117;208.016;-686.232;170.867;200.647;-675.253;35.139;-0.00356215;-0.00785569;4.29306;-0.024;-0.11;0
201;1664534710;775406297;-1.85473;0.000481878;-0.0114838;208.016;-686.232;170.867;200.656;-675.237;35.592;0.000983614;-0.000835198;4.32184;-0.05;0.029;0
202;1664534710;875348526;-1.85476;0.00108792;-0.0131012;208.016;-686.233;170.867;200.665;-675.222;36.0532;-0.00587936;0.00828773;4.35483;0.046;-0.012;0
203;1664534710;975320252;-1.85493;-0.00229217;-0.0146706;208.016;-686.233;170.866;200.677;-675.192;36.5191;-0.00507059;0.0139214;4.36556;0.103;0.345;0
204;1664534711;81031479;-1.85494;-0.00911374;-0.0174914;208.016;-686.233;170.866;200.684;-675.169;36.9946;-0.0116083;0.0118189;4.37803;0.154;0.17;0
205;1664534711;175315765;-1.85494;-0.0145354;-0.0172475;208.016;-686.233;170.866;200.688;-675.144;37.4597;-0.0231346;0.00729772;4.37879;0.235;0.249;0
206;1664534711;275315421;-1.85484;-0.0204849;-0.0168186;208.016;-686.233;170.866;200.688;-675.13;37.903;-0.040618;0.00295921;4.38771;0.153;-0.016;0
207;1664534711;375241047;-1.85508;-0.0221055;-0.017054;208.016;-686.233;170.866;200.681;-675.113;38.3512;-0.0544434;-0.00840128;4.40458;0.133;-0.056;0
208;1664534711;475678071;-1.8551;-0.0231163;-0.0136649;208.016;-686.233;170.866;200.672;-675.102;38.8054;-0.07402;-0.0290858;4.37559;0.092;-0.107;0
209;1664534711;575229834;-1.85469;-0.0222899;-0.0063573;208.016;-686.233;170.866;200.662;-675.09;39.2503;-0.0798665;-0.0417023;4.33611;0.07;0.013;0
210;1664534711;675167041;-1.85437;-0.0180234;-0.00255644;208.015;-686.232;170.867;200.652;-675.083;39.6796;-0.0882038;-0.0621201;4.3146;-0.017;-0.031;0
211;1664534711;775160202;-1.85356;-0.0106905;0.00276397;208.015;-686.232;170.867;200.645;-675.075;40.1043;-0.0850198;-0.0762244;4.22937;-0.116;-0.147;0
212;1664534711;875144278;-1.85205;-0.00765705;0.00470757;208.016;-686.234;170.867;200.638;-675.073;40.5015;-0.0810378;-0.08011;3.82534;-0.078;-0.156;0
213;1664534711;975078158;-1.85091;-0.00656676;0.00410861;208.018;-686.231;170.866;200.629;-675.074;40.8374;-0.0780012;-0.081322;3.2553;-0.073;-0.186;0
214;1664534712;75064040;-1.85044;-0.00604687;0.00223384;208.015;-686.234;170.867;200.62;-675.077;41.107;-0.0742097;-0.083263;2.67463;-0.128;-0.15;0
215;1664534712;179618732;-1.85099;-0.00366363;0.000495314;208.015;-686.234;170.867;200.608;-675.085;41.3118;-0.0717665;-0.0874601;2.27116;-0.08;-0.095;0
216;1664534712;275027761;-1.85115;-0.00185176;-0.000342844;208.015;-686.234;170.867;200.597;-675.094;41.4427;-0.0670746;-0.0937624;1.76475;-0.054;0.12;0
217;1664534712;375005159;-1.85101;-0.00132072;-0.000637205;208.015;-686.233;170.867;200.584;-675.105;41.5106;-0.0680499;-0.0966367;1.12591;-0.056;-0.019;0
218;1664534712;474967617;-1.85142;-0.000657284;-0.0011253;208.015;-686.233;170.867;200.573;-675.115;41.5208;-0.0640884;-0.0951701;0.612087;-0.039;0.022;0
219;1664534712;574963187;-1.85256;-0.00179284;-0.00410824;208.015;-686.233;170.867;200.561;-675.128;41.4941;-0.0638483;-0.0962202;0.294977;-0.029;-0.001;0
220;1664534712;674926156;-1.85353;-0.00348882;-0.00818557;208.017;-686.234;170.867;200.55;-675.141;41.4428;-0.0660651;-0.0969343;0.0780901;0.081;-0.002;0
221;1664534712;774908193;-1.85429;-0.00597588;-0.0121115;208.017;-686.234;170.867;200.529;-675.153;41.3893;-0.0931407;-0.0992271;-0.0555351;0.011;0.024;0
222;1664534712;874869755;-1.85492;-0.00588386;-0.0104058;208.016;-686.232;170.868;200.508;-675.165;41.3639;-0.0864458;-0.101418;-0.10673;0.008;0.058;0
223;1664534712;974868556;-1.85541;-0.00678306;-0.0110862;208.016;-686.232;170.868;200.481;-675.179;41.3494;-0.111864;-0.102147;-0.156237;-0.032;-0.017;0
224;1664534713;74833656;-1.85537;-0.00394016;-0.0067257;208.016;-686.232;170.868;200.458;-675.193;41.3584;-0.116661;-0.0886783;-0.11428;-0.067;0.045;0
225;1664534713;176149336;-1.85499;-0.00232604;-0.00387875;208.016;-686.232;170.868;200.43;-675.208;41.3918;-0.139065;-0.0939411;-0.0593293;-0.057;0.047;0
226;1664534713;276914047;-1.85443;0.00124076;0.002337;208.015;-686.234;170.867;200.405;-675.224;41.4593;-0.141469;-0.0915127;-0.0249639;-0.059;0.064;0
227;1664534713;377180767;-1.85422;0.00423617;0.00589195;208.017;-686.232;170.867;200.376;-675.239;41.5339;-0.141092;-0.0962386;0.00169501;-0.104;-0.074;0
228;1664534713;474735349;-1.85389;0.00813239;0.00894609;208.017;-686.233;170.867;200.351;-675.255;41.608;-0.135386;-0.0983595;0.017312;-0.103;-0.223;0
229;1664534713;578629696;-1.85363;0.00917833;0.0107678;208.017;-686.233;170.867;200.328;-675.274;41.6849;-0.126257;-0.0954803;0.0350436;-0.043;-0.063;0
230;1664534713;679106029;-1.85327;0.00959753;0.0149756;208.016;-686.233;170.867;200.308;-675.293;41.7559;-0.1191;-0.102233;0.00554296;-0.061;-0.216;0
231;1664534713;778432243;-1.85296;0.0126045;0.013059;208.016;-686.233;170.867;200.29;-675.308;41.8175;-0.106399;-0.104464;-0.0258447;-0.062;-0.152;0
232;1664534713;874634418;-1.8525;0.0154371;0.0105702;208.018;-686.233;170.867;200.273;-675.323;41.8562;-0.0984056;-0.105501;-0.0556811;-0.008;0.025;0
233;1664534713;974568963;-1.85212;0.0145475;0.0119255;208.018;-686.233;170.867;200.262;-675.335;41.8893;-0.0910514;-0.10407;-0.0895047;-0.02;-0.26;0
234;1664534714;74573492;-1.85226;0.0149098;0.0114209;208.015;-686.232;170.867;200.251;-675.352;41.9173;-0.0824305;-0.102562;-0.131435;-0.013;-0.019;0
235;1664534714;174539478;-1.85238;0.0162902;0.00786564;208.015;-686.232;170.867;200.249;-675.361;41.9295;-0.0736311;-0.100206;-0.163044;-0.019;-0.028;0
236;1664534714;274540494;-1.85274;0.0163288;0.00499068;208.015;-686.232;170.867;200.244;-675.372;41.9284;-0.0670479;-0.0956535;-0.188924;-0.017;-0.078;0
237;1664534714;374497650;-1.85301;0.0163563;0.00336321;208.018;-686.233;170.867;200.243;-675.376;41.9231;-0.0659141;-0.0731376;-0.196462;-0.01;-0.094;0
238;1664534714;474439769;-1.85324;0.0142832;0.00994104;208.014;-686.234;170.867;200.239;-675.382;41.9127;-0.0643102;-0.0672728;-0.216385;0.006;0.06;0
239;1664534714;574421335;-1.85365;0.0163429;0.0129441;208.014;-686.234;170.867;200.241;-675.382;41.8991;-0.0424358;-0.0575721;-0.231997;0.009;0.088;0
240;1664534714;674412402;-1.85353;0.0166026;0.0153206;208.016;-686.232;170.867;200.242;-675.384;41.8863;-0.0273564;-0.0535387;-0.238803;0.025;0.079;0
241;1664534714;774400878;-1.85319;0.0184869;0.016727;208.016;-686.232;170.867;200.242;-675.382;41.8712;-0.0211752;-0.0526071;-0.231815;-0.022;-0.037;0
242;1664534714;874358449;-1.85303;0.0202453;0.0160884;208.017;-686.234;170.867;200.242;-675.383;41.8596;-0.00192121;-0.0405044;-0.22551;-0.046;-0.041;0
243;1664534714;974319252;-1.85319;0.0180709;0.0127453;208.017;-686.234;170.867;200.242;-675.38;41.8473;0.00834374;-0.0350997;-0.226006;-0.007;-0.139;0
244;1664534715;74295625;-1.85319;0.0152464;0.00823441;208.017;-686.234;170.867;200.245;-675.378;41.8369;0.0176999;-0.00667568;-0.222774;0.076;0.049;0
245;1664534715;174276390;-1.85312;0.0116397;0.00628503;208.018;-686.231;170.867;200.248;-675.376;41.8245;0.0250733;-0.00308574;-0.228986;0.064;0.134;0
246;1664534715;274288859;-1.85318;0.00887511;0.006417;208.015;-686.234;170.866;200.252;-675.375;41.8136;0.0212025;-0.00564317;-0.22735;0.061;-0.12;0
247;1664534715;374248958;-1.85319;0.010431;0.00984775;208.015;-686.234;170.866;200.251;-675.376;41.8039;0.0254969;0.0013308;-0.212616;0.005;-0.257;0
248;1664534715;480531965;-1.85326;0.0129579;0.0114759;208.018;-686.233;170.866;200.253;-675.375;41.7962;0.0348737;0.00871236;-0.2052;-0.069;-0.023;0
249;1664534715;574188221;-1.8533;0.0165104;0.0129397;208.017;-686.233;170.866;200.252;-675.371;41.7919;0.0459221;0.0144801;-0.193285;-0.048;0.179;0
250;1664534715;674153694;-1.85278;0.016817;0.0116353;208.016;-686.234;170.867;200.255;-675.367;41.7916;0.0533909;0.0209043;-0.18562;0.004;0.181;0
251;1664534715;774172242;-1.85216;0.014943;0.0106703;208.016;-686.234;170.867;200.261;-675.361;41.7913;0.0631773;0.0299466;-0.180287;0.003;-0.127;0
252;1664534715;877057821;-1.8522;0.0111485;0.0119049;208.016;-686.234;170.867;200.268;-675.356;41.7891;0.0717393;0.0381984;-0.178166;0.073;-0.007;0
253;1664534715;974082041;-1.85232;0.00749128;0.0148254;208.017;-686.233;170.867;200.273;-675.35;41.7886;0.0851758;0.0393046;-0.174635;0.076;-0.061;0
254;1664534716;74053939;-1.85294;0.00311699;0.0150194;208.017;-686.233;170.867;200.28;-675.343;41.7865;0.0870531;0.0439727;-0.156011;0.134;0.041;0
255;1664534716;174030039;-1.85408;-0.00153187;0.0178706;208.015;-686.233;170.867;200.287;-675.337;41.7786;0.0949546;0.0275684;-0.188154;0.123;-0.057;0
256;1664534716;274013402;-1.85498;-0.00171349;0.016476;208.017;-686.233;170.867;200.296;-675.333;41.7672;0.106971;0.0164647;-0.18571;0.075;-0.07;0
257;1664534716;373977922;-1.8562;-0.00500074;0.0127404;208.017;-686.233;170.867;200.308;-675.331;41.7565;0.117356;0.00056394;-0.188579;0.078;-0.182;0
258;1664534716;474047631;-1.85697;-0.00565959;0.00774693;208.017;-686.233;170.867;200.322;-675.331;41.7472;0.123495;-0.0162138;-0.179423;0.053;-0.18;0
259;1664534716;573935114;-1.85781;-0.00649728;0.00468749;208.016;-686.232;170.867;200.332;-675.333;41.7414;0.110453;-0.0311604;-0.192592;0.071;0.147;0
260;1664534716;677445433;-1.858;-0.00417166;0.00377427;208.017;-686.235;170.867;200.342;-675.336;41.7381;0.110567;-0.0455681;-0.164334;-0.005;0.071;0
261;1664534716;773867448;-1.8582;-0.00255706;-0.000422199;208.017;-686.235;170.867;200.352;-675.339;41.7399;0.114642;-0.0612404;-0.133381;-0.083;-0.027;0
262;1664534716;873868278;-1.85786;-2.52122e-06;-0.00401846;208.016;-686.232;170.867;200.363;-675.343;41.7416;0.110826;-0.06972;-0.161233;-0.106;0.089;0
263;1664534716;973814882;-1.85808;0.00147198;-0.00804274;208.016;-686.232;170.867;200.369;-675.345;41.7447;0.103528;-0.0709622;-0.146395;-0.119;0.284;0
264;1664534717;73799813;-1.85783;0.00296069;-0.00982032;208.018;-686.233;170.867;200.375;-675.348;41.7476;0.087345;-0.0795895;-0.142099;-0.089;0.174;0
265;1664534717;173786932;-1.85773;0.00714672;-0.0106454;208.018;-686.233;170.867;200.38;-675.35;41.7517;0.0703627;-0.0772143;-0.141498;-0.14;0.208;0
266;1664534717;273744362;-1.85706;0.0088238;-0.00943615;208.015;-686.233;170.867;200.384;-675.353;41.7521;0.0578753;-0.0767418;-0.131809;-0.096;0.099;0
267;1664534717;373715517;-1.857;0.00904657;-0.0111936;208.015;-686.233;170.867;200.385;-675.353;41.7523;0.0443914;-0.0740315;-0.157948;-0.092;-0.054;0
268;1664534717;473693167;-1.8569;0.00881339;-0.012328;208.019;-686.234;170.867;200.384;-675.355;41.7492;0.0165632;-0.0755886;-0.186593;-0.055;0.04;0
269;1664534717;573669536;-1.85658;0.0100219;-0.00818957;208.019;-686.234;170.867;200.381;-675.353;41.7429;-7.92816e-05;-0.0713167;-0.16991;-0.025;0.137;0
270;1664534717;673682729;-1.85626;0.00992634;-0.00396635;208.019;-686.234;170.867;200.378;-675.353;41.734;-0.0123054;-0.0685722;-0.163806;-0.019;0.093;0
271;1664534717;773607239;-1.85611;0.0115649;-0.000165682;208.014;-686.233;170.867;200.371;-675.353;41.7245;-0.0183553;-0.0760079;-0.147328;-0.004;0.002;0
272;1664534717;874709117;-1.85568;0.013731;0.00587561;208.014;-686.233;170.867;200.366;-675.356;41.7149;-0.0232371;-0.0734218;-0.155132;-0.055;-0.007;0
273;1664534717;973549517;-1.85583;0.0148659;0.00591738;208.017;-686.233;170.867;200.356;-675.354;41.7061;-0.0329809;-0.0804923;-0.159496;-0.032;-0.126;0
274;1664534718;73528363;-1.85523;0.0190716;0.0092788;208.017;-686.233;170.867;200.348;-675.354;41.6969;-0.0262199;-0.0755089;-0.160561;-0.083;-0.132;0
275;1664534718;173508079;-1.85519;0.0202106;0.0063943;208.015;-686.232;170.867;200.338;-675.35;41.6878;-0.0178972;-0.06713;-0.156728;-0.044;-0.242;0
276;1664534718;273514125;-1.85483;0.0203954;0.0053138;208.015;-686.232;170.867;200.332;-675.35;41.6815;-0.0184124;-0.067727;-0.139699;-0.012;-0.036;0
277;1664534718;373489810;-1.85447;0.0209115;0.00697877;208.017;-686.234;170.867;200.328;-675.346;41.6743;-0.0177288;-0.0601298;-0.153415;-0.026;0.05;0
278;1664534718;473457849;-1.85447;0.0187998;0.00729066;208.017;-686.234;170.867;200.325;-675.344;41.6709;-0.00905223;-0.0457393;-0.131234;-0.016;-0.022;0
279;1664534718;573396872;-1.85398;0.0152565;0.00912983;208.015;-686.231;170.867;200.327;-675.336;41.6699;0.00307954;-0.036464;-0.117185;0.064;-0.032;0
280;1664534718;673395975;-1.8539;0.0103424;0.00765047;208.015;-686.231;170.867;200.33;-675.331;41.6696;0.0045141;-0.0332115;-0.118342;0.115;-0.043;0
281;1664534718;773349010;-1.85401;0.0058337;0.00799174;208.017;-686.236;170.867;200.334;-675.322;41.6702;0.00614962;-0.0339365;-0.10401;0.147;0.086;0
282;1664534718;873355631;-1.85403;0.00375248;0.00799478;208.017;-686.236;170.867;200.337;-675.316;41.6697;0.0147476;-0.0358618;-0.122947;0.136;0.036;0
283;1664534718;973249961;-1.85412;0.00106637;0.00747173;208.015;-686.231;170.867;200.341;-675.306;41.6701;0.0218497;-0.039318;-0.120882;0.124;0.096;0
284;1664534719;73253497;-1.85416;0.00134942;0.00646588;208.015;-686.231;170.867;200.346;-675.3;41.6673;0.0403754;-0.0447934;-0.125881;0.037;-0.102;0
285;1664534719;173226201;-1.85406;0.000784924;0.00465428;208.017;-686.233;170.867;200.352;-675.292;41.6619;0.0419425;-0.0487121;-0.125729;0.053;-0.047;0
286;1664534719;273199673;-1.85419;-0.000992699;0.00156548;208.017;-686.233;170.867;200.357;-675.289;41.658;0.0434195;-0.0547185;-0.120896;0.092;0.038;0
287;1664534719;373175960;-1.85413;-0.000724446;0.000579672;208.014;-686.235;170.867;200.36;-675.285;41.6561;0.0368052;-0.0669095;-0.125655;0.059;0.127;0
288;1664534719;473203435;-1.85426;-0.000488822;-0.000841694;208.014;-686.235;170.867;200.363;-675.286;41.6541;0.035576;-0.0803394;-0.116589;0.012;0.105;0
289;1664534719;573113659;-1.85374;0.00338167;-0.00209406;208.017;-686.232;170.867;200.363;-675.285;41.6553;0.030572;-0.0805466;-0.106539;-0.115;-0.05;0
290;1664534719;673096920;-1.8531;0.00593064;0.00234408;208.017;-686.232;170.867;200.363;-675.286;41.6562;0.0255274;-0.0798151;-0.109941;-0.078;0.202;0
291;1664534719;773081685;-1.85288;0.00938848;0.00183835;208.017;-686.233;170.867;200.361;-675.288;41.6562;0.0297558;-0.0836201;-0.118976;-0.086;0.212;0
292;1664534719;873073680;-1.85233;0.0117154;0.00206388;208.017;-686.233;170.867;200.36;-675.291;41.6555;0.0116027;-0.080962;-0.114629;-0.121;0.104;0
293;1664534719;973003900;-1.8517;0.0159706;0.00573785;208.015;-686.233;170.867;200.355;-675.292;41.6543;0.0128505;-0.0798609;-0.0976115;-0.106;0.185;0
294;1664534720;78069133;-1.85132;0.0183576;0.00549178;208.015;-686.233;170.867;200.353;-675.294;41.653;0.0263361;-0.0470299;-0.120178;-0.065;0.134;0
295;1664534720;173044410;-1.85117;0.0133344;0.00475185;208.015;-686.233;170.867;200.35;-675.29;41.6516;0.0288039;-0.0387342;-0.110558;0.059;0.051;0
296;1664534720;273029719;-1.85118;0.0104216;0.00367909;208.015;-686.234;170.867;200.35;-675.287;41.6573;0.0304488;-0.0301297;-0.105039;0.079;-0.023;0
297;1664534720;372990043;-1.85114;0.00747629;0.0040549;208.017;-686.232;170.866;200.345;-675.281;41.6629;0.0305904;-0.0239854;-0.100381;0.072;-0.062;0
298;1664534720;472891630;-1.85117;0.00514514;0.00451012;208.017;-686.232;170.866;200.343;-675.277;41.6639;0.0293477;-0.0209094;-0.10593;0.055;-0.092;0
299;1664534720;572864111;-1.85141;0.000981613;0.00469005;208.016;-686.233;170.866;200.339;-675.27;41.6635;0.0222406;-0.0227637;-0.125279;0.105;0.014;0
300;1664534720;672918106;-1.85156;-0.00246195;0.00567935;208.016;-686.233;170.866;200.338;-675.265;41.6641;0.0193878;-0.0243656;-0.10437;0.14;0.061;0
301;1664534720;772807472;-1.8517;-0.00382393;0.00839644;208.017;-686.234;170.867;200.336;-675.262;41.6649;0.0169919;-0.0268349;-0.100924;0.048;-0.103;0
302;1664534720;872781233;-1.85182;-0.003291;0.00942703;208.017;-686.234;170.867;200.335;-675.26;41.6623;0.0146167;-0.0366687;-0.112661;0.012;-0.106;0
303;1664534720;972740725;-1.85223;-0.00165473;0.0109645;208.016;-686.232;170.867;200.331;-675.261;41.6614;0.0130596;-0.0457009;-0.115507;0.005;0.098;0
304;1664534721;72707769;-1.85243;0.00376108;0.0125985;208.016;-686.232;170.867;200.327;-675.264;41.669;0.0137776;-0.0537024;-0.108222;-0.038;0.08;0
305;1664534721;174196980;-1.85249;0.00713087;0.0104418;208.018;-686.233;170.867;200.325;-675.267;41.673;0.0281057;-0.0544747;-0.0980197;-0.104;-0.073;0
306;1664534721;272669218;-1.85126;0.00998466;0.00775732;208.018;-686.233;170.867;200.325;-675.271;41.6725;0.0313575;-0.0536735;-0.111185;-0.135;-0.042;0
307;1664534721;372656421;-1.82029;-0.085989;0.0391287;208.015;-686.234;170.867;200.326;-675.278;41.675;0.040785;-0.122165;-0.0941503;1.464;-0.05;0
308;1664534721;472625804;-1.75187;-0.253245;0.081131;208.015;-686.234;170.867;200.329;-675.298;41.6846;0.0527704;-0.303352;-0.0628986;2.442;-0.683;0
309;1664534721;572603634;-1.64874;-0.376368;0.0966087;208.016;-686.233;170.867;200.335;-675.35;41.685;0.0887946;-0.623122;-0.0730033;3.346;-1.136;0
310;1664534721;672541569;-1.57246;-0.423649;0.0880702;208.016;-686.233;170.867;200.346;-675.437;41.6788;0.164192;-1.04525;-0.0273818;2.813;-0.321;0
311;1664534721;772547104;-1.54427;-0.418787;0.0946538;208.016;-686.234;170.866;200.374;-675.598;41.6784;0.264469;-1.49191;0.00715172;1.716;0.053;0
312;1664534721;872506794;-1.5393;-0.401619;0.0996287;208.016;-686.234;170.866;200.411;-675.791;41.6735;0.370792;-1.88196;-0.0265733;0.893;-0.191;0
313;1664534721;972482448;-1.54155;-0.386925;0.0974382;208.015;-686.233;170.867;200.458;-676.06;41.6779;0.479915;-2.27389;-0.021058;0.093;0.019;0
314;1664534722;72452957;-1.54455;-0.374873;0.0936466;208.015;-686.233;170.867;200.514;-676.349;41.6975;0.585153;-2.64955;-0.0116583;-0.119;0.049;0
315;1664534722;177085001;-1.54519;-0.361703;0.0911663;208.017;-686.233;170.867;200.59;-676.716;41.713;0.686025;-3.00499;-0.006833;-0.408;0.08;0
316;1664534722;272405632;-1.54528;-0.351736;0.0857461;208.017;-686.233;170.867;200.674;-677.093;41.7246;0.777379;-3.34848;-0.02025;-0.434;0.06;0
317;1664534722;372377203;-1.54526;-0.343609;0.0818577;208.018;-686.233;170.867;200.779;-677.528;41.7379;0.868935;-3.67336;-0.00942476;-0.544;0.004;0
318;1664534722;472343688;-1.5451;-0.340073;0.0791932;208.018;-686.233;170.867;200.886;-677.97;41.761;0.951381;-3.98488;0.00830625;-0.422;0.161;0
319;1664534722;572318714;-1.54515;-0.340741;0.0756052;208.016;-686.233;170.867;201.015;-678.47;41.7773;1.02807;-4.27352;-0.0141413;-0.277;0.142;0
320;1664534722;672292012;-1.54537;-0.341984;0.0709663;208.016;-686.233;170.867;201.141;-678.973;41.7867;1.1044;-4.56485;-0.0247852;-0.242;-0.066;0
321;1664534722;772241541;-1.54532;-0.346489;0.0660513;208.018;-686.233;170.867;201.286;-679.513;41.7963;1.17416;-4.86427;-0.016219;-0.07;0.001;0
322;1664534722;872219574;-1.54436;-0.352056;0.0609164;208.018;-686.233;170.867;201.429;-680.067;41.8095;1.24828;-5.15059;-0.0190719;-0.058;0.237;0
323;1664534722;972244603;-1.54457;-0.357912;0.0588217;208.016;-686.233;170.867;201.584;-680.632;41.8136;1.30595;-5.40584;-0.0629725;0.018;0.144;0
324;1664534723;72214489;-1.54422;-0.360572;0.0528576;208.016;-686.233;170.867;201.736;-681.221;41.816;1.33292;-5.68747;-0.057084;0.142;-0.012;0
325;1664534723;172172001;-1.54276;-0.367093;0.0426451;208.016;-686.233;170.867;201.895;-681.823;41.8165;1.39338;-5.95513;-0.0497996;0.012;-0.007;0
326;1664534723;272168863;-1.54088;-0.369568;0.0271275;208.016;-686.233;170.867;202.054;-682.457;41.8141;1.42767;-6.22259;-0.0768016;0.02;0.434;0
327;1664534723;376235467;-1.53863;-0.365815;0.00966476;208.017;-686.232;170.867;202.21;-683.107;41.8109;1.44792;-6.49506;-0.0713627;-0.1;0.756;0
328;1664534723;472073843;-1.53681;-0.304597;-0.0105398;208.017;-686.233;170.867;202.365;-683.789;41.8094;1.44115;-6.72132;-0.0626631;-0.845;0.647;0
329;1664534723;572062707;-1.53625;-0.212491;-0.0322973;208.018;-686.233;170.867;202.514;-684.476;41.8095;1.41519;-6.881;-0.0165352;-1.473;0.714;0
330;1664534723;672021019;-1.53885;-0.106068;-0.0534751;208.018;-686.233;170.867;202.661;-685.184;41.8108;1.35677;-6.93202;0.00962003;-2.269;1.022;0
331;1664534723;771997790;-1.54366;0.0075677;-0.0720794;208.016;-686.233;170.867;202.794;-685.87;41.8195;1.28265;-6.88974;0.0296607;-2.677;0.898;0
332;1664534723;879094569;-1.55023;0.11735;-0.0929165;208.016;-686.233;170.867;202.921;-686.56;41.8359;1.18409;-6.75005;0.0340954;-2.944;0.781;0
333;1664534723;971922700;-1.5554;0.2138;-0.104502;208.016;-686.233;170.867;203.025;-687.19;41.8629;1.07304;-6.5154;0.0381157;-3.001;0.688;0
334;1664534724;71915225;-1.55918;0.295532;-0.106853;208.018;-686.232;170.867;203.123;-687.813;41.8971;0.956438;-6.2107;0.0188123;-2.967;0.564;0
335;1664534724;172053513;-1.56135;0.361661;-0.10976;208.018;-686.232;170.867;203.192;-688.344;41.9201;0.841156;-5.84604;-0.0153377;-2.567;0.896;0
336;1664534724;271892488;-1.56305;0.406755;-0.115579;208.016;-686.232;170.867;203.257;-688.864;41.9305;0.722493;-5.40978;-0.028018;-2.029;0.626;0
337;1664534724;371832588;-1.56359;0.427415;-0.118218;208.016;-686.232;170.867;203.293;-689.297;41.9362;0.598624;-4.95273;-0.0737598;-1.434;0.427;0
338;1664534724;471800361;-1.56174;0.433146;-0.117623;208.015;-686.234;170.867;203.328;-689.726;41.9365;0.471829;-4.47436;-0.102083;-1.032;-0.011;0
339;1664534724;571892645;-1.56062;0.438016;-0.119505;208.015;-686.234;170.867;203.326;-690.033;41.9202;0.337991;-3.99992;-0.134148;-0.655;0.066;0
340;1664534724;671764891;-1.56019;0.448217;-0.11991;208.018;-686.231;170.867;203.324;-690.332;41.888;0.203603;-3.52702;-0.210701;-0.526;-0.072;0
341;1664534724;771747252;-1.55988;0.461373;-0.114286;208.018;-686.231;170.867;203.286;-690.518;41.8433;0.069447;-3.02029;-0.244884;-0.389;0.336;0
342;1664534724;871700564;-1.56116;0.468931;-0.106101;208.016;-686.234;170.867;203.251;-690.703;41.7852;-0.0467035;-2.51371;-0.322447;-0.215;0.096;0
343;1664534724;971649814;-1.56226;0.476604;-0.0927584;208.016;-686.234;170.867;203.184;-690.783;41.7249;-0.17179;-1.95858;-0.345473;-0.212;0.054;0
344;1664534725;71634849;-1.55891;0.459642;-0.0664334;208.017;-686.233;170.867;203.123;-690.858;41.6627;-0.286057;-1.39443;-0.339825;0.165;-0.79;0
345;1664534725;171624852;-1.55292;0.415627;-0.0356307;208.017;-686.233;170.867;203.039;-690.831;41.6107;-0.388346;-0.837191;-0.304589;0.768;-0.4;0
346;1664534725;271603755;-1.5456;0.343671;0.00401852;208.016;-686.234;170.867;202.96;-690.79;41.5744;-0.444935;-0.356253;-0.185667;1.141;-2.218;0
347;1664534725;371547818;-1.54061;0.253392;0.0320543;208.016;-686.234;170.867;202.866;-690.683;41.5627;-0.454425;0.0299444;-0.0676774;1.869;-1.318;0
348;1664534725;471530207;-1.53888;0.165171;0.0621937;208.017;-686.234;170.867;202.785;-690.579;41.5726;-0.432488;0.28454;-0.00515839;2.434;-1.578;0
349;1664534725;571504439;-1.5402;0.0918873;0.0809405;208.017;-686.234;170.867;202.703;-690.451;41.5939;-0.380117;0.444914;0.0659549;2.494;-0.75;0
350;1664534725;671492523;-1.54193;0.0459327;0.0901524;208.016;-686.231;170.867;202.649;-690.356;41.6171;-0.330804;0.513802;0.087614;2.286;-1.51;0
351;1664534725;771470945;-1.54338;0.00471265;0.0986252;208.016;-686.231;170.867;202.592;-690.251;41.6534;-0.259089;0.53204;0.121541;1.754;-0.91;0
352;1664534725;871396966;-1.54473;-0.0225072;0.100065;208.016;-686.234;170.866;202.548;-690.155;41.6885;-0.189458;0.529294;0.0926282;1.523;-0.725;0
353;1664534725;971378715;-1.54524;-0.041451;0.0971047;208.016;-686.234;170.866;202.522;-690.104;41.7193;-0.112455;0.495276;0.0788639;1.302;-0.507;0
354;1664534726;71382049;-1.5452;-0.0533442;0.0907225;208.015;-686.234;170.867;202.505;-690.05;41.7383;-0.0378746;0.440498;0.0602975;0.933;-0.068;0
355;1664534726;171368471;-1.54491;-0.0585254;0.0829973;208.015;-686.234;170.867;202.51;-690.059;41.7486;0.0295922;0.376738;0.0377448;0.662;-0.181;0
356;1664534726;271324181;-1.54419;-0.0561054;0.0763725;208.019;-686.234;170.867;202.518;-690.049;41.7506;0.0942175;0.29083;0.0261001;0.443;0.115;0
357;1664534726;371283570;-1.54337;-0.0489103;0.0720128;208.019;-686.234;170.867;202.547;-690.106;41.7462;0.150299;0.221583;-0.00919518;0.097;0.096;0
358;1664534726;471230866;-1.54311;-0.0423737;0.0667456;208.014;-686.231;170.867;202.573;-690.126;41.735;0.203424;0.158466;-0.0295914;-0.029;0.118;0
359;1664534726;571222663;-1.54241;-0.0311935;0.0571521;208.014;-686.231;170.867;202.614;-690.202;41.724;0.248983;0.103098;-0.0410677;-0.166;0.058;0
360;1664534726;671177189;-1.54167;-0.0181938;0.0467894;208.015;-686.234;170.867;202.651;-690.244;41.7166;0.286514;0.0546246;-0.0419919;-0.318;0.341;0
361;1664534726;771158173;-1.54128;-0.00457892;0.0364534;208.015;-686.234;170.867;202.696;-690.328;41.7096;0.317626;0.0253443;-0.0380399;-0.451;0.29;0
362;1664534726;871127287;-1.54077;0.00816953;0.0273222;208.015;-686.232;170.867;202.738;-690.375;41.7057;0.336007;0.012359;-0.0439673;-0.511;0.165;0
363;1664534726;971091955;-1.54063;0.0187149;0.0185465;208.015;-686.232;170.867;202.783;-690.445;41.7033;0.343631;0.0101103;-0.0474721;-0.406;0.276;0
364;1664534727;75137016;-1.54062;0.0299962;0.00987105;208.019;-686.234;170.867;202.833;-690.489;41.7047;0.340971;0.0216042;-0.0407401;-0.403;0.421;0
365;1664534727;171053154;-1.54072;0.0370389;0.0052297;208.019;-686.234;170.867;202.863;-690.527;41.7075;0.335183;0.0314828;-0.046826;-0.36;0.513;0
366;1664534727;271025794;-1.54086;0.0456426;0.000978471;208.015;-686.232;170.867;202.897;-690.551;41.7098;0.318987;0.0633401;-0.0333702;-0.299;0.297;0
367;1664534727;372138349;-1.54107;0.0521664;-0.00578598;208.015;-686.232;170.867;202.922;-690.57;41.7161;0.29884;0.101698;-0.0259559;-0.199;0.489;0
368;1664534727;472761533;-1.54103;0.0541735;-0.0121231;208.017;-686.234;170.867;202.946;-690.573;41.7237;0.270569;0.148607;-0.0158114;-0.158;0.395;0
369;1664534727;570944514;-1.54111;0.0521227;-0.0156861;208.017;-686.234;170.867;202.955;-690.563;41.7344;0.23905;0.201505;-0.0284504;-0.041;0.273;0
370;1664534727;670916706;-1.54117;0.0492199;-0.0154335;208.017;-686.233;170.868;202.967;-690.546;41.744;0.20548;0.24634;-0.0240276;-0.015;0.365;0
371;1664534727;770891489;-1.54125;0.0452626;-0.0127006;208.017;-686.233;170.868;202.964;-690.513;41.7543;0.163684;0.287443;-0.0240644;0.045;0.2;0
372;1664534727;870868928;-1.54119;0.0385854;-0.0086677;208.015;-686.234;170.867;202.966;-690.48;41.7601;0.131696;0.322595;-0.0279377;0.129;0.009;0
373;1664534727;970806921;-1.54106;0.0317486;-0.00355216;208.015;-686.234;170.867;202.952;-690.437;41.7657;0.104793;0.341038;-0.0324064;0.152;0.062;0
374;1664534728;70823834;-1.54127;0.0261678;-0.000881257;208.017;-686.232;170.867;202.944;-690.396;41.7635;0.0823953;0.365744;-0.0428559;0.173;-0.009;0
375;1664534728;170788136;-1.54151;0.0200617;0.00208856;208.017;-686.232;170.867;202.925;-690.348;41.7616;0.0589869;0.374969;-0.0422343;0.172;-0.16;0
376;1664534728;270750422;-1.54154;0.0139745;0.00629387;208.014;-686.232;170.868;202.915;-690.305;41.7604;0.0448778;0.38673;-0.0495863;0.168;-0.162;0
377;1664534728;370727584;-1.54166;0.00720111;0.0100619;208.014;-686.232;170.868;202.893;-690.256;41.7582;0.0371471;0.397762;-0.0634435;0.227;-0.065;0
378;1664534728;470694893;-1.54206;-0.00040054;0.012122;208.018;-686.234;170.868;202.88;-690.211;41.7538;0.0239482;0.384931;-0.0674387;0.331;-0.117;0
379;1664534728;571121277;-1.54224;-0.0059945;0.0140025;208.018;-686.234;170.868;202.862;-690.167;41.7542;0.018871;0.377477;-0.0482759;0.296;-0.192;0
380;1664534728;670635749;-1.54259;-0.00925261;0.0183597;208.016;-686.233;170.867;202.852;-690.127;41.7563;0.0194833;0.36458;-0.0490621;0.258;-0.02;0
381;1664534728;770602194;-1.54278;-0.0145237;0.0215765;208.016;-686.233;170.867;202.84;-690.091;41.7571;0.0237657;0.347663;-0.0558878;0.242;-0.092;0
382;1664534728;870579100;-1.54263;-0.0192373;0.0238207;208.016;-686.234;170.867;202.833;-690.057;41.7591;0.0361589;0.316216;-0.0316759;0.192;-0.121;0
383;1664534728;970543882;-1.54251;-0.0230285;0.0246881;208.016;-686.234;170.867;202.827;-690.032;41.7614;0.0440246;0.291164;-0.0280676;0.142;-0.305;0
384;1664534729;70538281;-1.5423;-0.0266835;0.0260734;208.017;-686.235;170.867;202.824;-690.008;41.7645;0.0550728;0.268128;-0.0391925;0.116;-0.253;0
385;1664534729;170492937;-1.54239;-0.0290236;0.0265871;208.017;-686.235;170.867;202.822;-689.992;41.7667;0.064943;0.236152;-0.0505037;0.116;-0.179;0
386;1664534729;270476257;-1.54239;-0.0288866;0.0286612;208.017;-686.235;170.867;202.822;-689.977;41.7679;0.0656111;0.203076;-0.0707548;0.068;-0.086;0
387;1664534729;370437824;-1.54228;-0.0258868;0.0300639;208.017;-686.235;170.867;202.823;-689.97;41.7652;0.0763167;0.172388;-0.057481;-0.039;0.032;0
388;1664534729;470377348;-1.54222;-0.0224395;0.0297114;208.016;-686.236;170.867;202.828;-689.961;41.7609;0.0874279;0.144139;-0.0523772;-0.053;-0.023;0
389;1664534729;570367290;-1.54248;-0.0216791;0.0270826;208.016;-686.236;170.867;202.837;-689.958;41.7575;0.0968015;0.119378;-0.0527014;-0.056;0.025;0
390;1664534729;674701485;-1.54255;-0.0197777;0.0232307;208.016;-686.235;170.867;202.85;-689.952;41.7553;0.100335;0.101798;-0.0687582;-0.068;-0.045;0
391;1664534729;770353509;-1.54273;-0.019845;0.0215659;208.016;-686.235;170.867;202.857;-689.954;41.7525;0.106118;0.085561;-0.0553015;-0.059;-0.152;0
392;1664534729;870283532;-1.54284;-0.0186014;0.0197745;208.016;-686.234;170.867;202.867;-689.954;41.7507;0.111266;0.0663526;-0.0518902;-0.061;-0.056;0
393;1664534729;970253256;-1.54279;-0.0153905;0.0209678;208.016;-686.234;170.867;202.877;-689.958;41.7518;0.113542;0.0463156;-0.0494115;-0.14;0.052;0
394;1664534730;70237599;-1.54299;-0.0100888;0.0200493;208.015;-686.236;170.867;202.888;-689.961;41.7556;0.11643;0.0317362;-0.048481;-0.204;0.08;0
395;1664534730;170205488;-1.54304;-0.00548216;0.0183422;208.015;-686.236;170.867;202.901;-689.964;41.7622;0.116627;0.0224746;-0.0473191;-0.244;-0.095;0
396;1664534730;270164419;-1.54287;-0.0037334;0.0166803;208.017;-686.235;170.867;202.914;-689.967;41.768;0.103567;0.00739597;-0.045778;-0.183;-0.06;0
397;1664534730;370192067;-1.54278;-0.00247484;0.0156123;208.017;-686.235;170.867;202.924;-689.971;41.7767;0.102191;0.00227952;-0.0422181;-0.162;-0.023;0
